[
  {
    "typology": "TERRASSE OUVERTE",
    "address": "122 RUE MONTMARTRE",
    "district": "75002",
    "name": "SAS L'ECLAIR DE GENIE",
    "siret": "75126409400051",
    "period": "Toute l'année",
    "longitude": 2.3438227898585997,
    "latitude": 48.867918109076626,
    "image": "https://streetviewpixels-pa.googleapis.com/v1/thumbnail?panoid=K4dNXMMMo2dNuxmCM6iMNA&cb_client=search.gws-prod.gps&w=408&h=240&yaw=41.457134&pitch=0&thumbfov=100"
  },
  {
    "typology": "TERRASSE OUVERTE",
    "address": "354 RUE DE VAUGIRARD",
    "district": "75015",
    "name": "M OU MME HAUVUY THOMAS JACQUES MARIE",
    "siret": "49369995300037",
    "period": "Toute l'année",
    "longitude": 2.2931010760372925,
    "latitude": 48.83575076602406,
    "image": "https://streetviewpixels-pa.googleapis.com/v1/thumbnail?panoid=qudJ7fXvU1vkpZVeUR0exQ&cb_client=search.gws-prod.gps&w=408&h=240&yaw=276.56073&pitch=0&thumbfov=100"
  },
  {
    "typology": "ETALAGE",
    "address": "120 RUE DES PYRENEES",
    "district": "75020",
    "name": "SAS DEMAIN",
    "siret": "84972346500019",
    "period": "Toute l'année",
    "longitude": 2.4038622496058393,
    "latitude": 48.857826058216794,
    "image": "https://streetviewpixels-pa.googleapis.com/v1/thumbnail?panoid=PsTtu9xryjTLxT0ywXXZgw&cb_client=search.gws-prod.gps&w=408&h=240&yaw=78.576584&pitch=0&thumbfov=100"
  },
  {
    "typology": "Contre terrasse estivale sur stationnement",
    "address": "4 RUE MALHER",
    "district": "75004",
    "name": "BREAKFAST IN AMERICA",
    "siret": "48328633200018",
    "period": "Du 01/04 au 31/10",
    "longitude": 2.3612283569442374,
    "latitude": 48.85553601292725,
    "image": "https://streetviewpixels-pa.googleapis.com/v1/thumbnail?panoid=fhjEKFthaMW2QGmoRzmRxw&cb_client=search.gws-prod.gps&w=408&h=240&yaw=113.785995&pitch=0&thumbfov=100"
  },
  {
    "typology": "TERRASSE OUVERTE",
    "address": "1 SENTIER DE LA POINTE",
    "district": "75020",
    "name": "SAS BPOP",
    "siret": "79441347600035",
    "period": "Toute l'année",
    "longitude": 2.4017351144964754,
    "latitude": 48.85555134903415,
    "image": "https://streetviewpixels-pa.googleapis.com/v1/thumbnail?panoid=mMd8nnCGecqpdOUHOPjbtw&cb_client=search.gws-prod.gps&w=408&h=240&yaw=284.15567&pitch=0&thumbfov=100"
  },
  {
    "typology": "Contre terrasse estivale sur stationnement",
    "address": "8 RUE DE MARIGNAN",
    "district": "75008",
    "name": "CHEZ RAYMOND",
    "siret": "91083761600010",
    "period": "Du 01/04 au 31/10",
    "longitude": 2.306360796378504,
    "latitude": 48.86828388368898,
    "image": "https://streetviewpixels-pa.googleapis.com/v1/thumbnail?panoid=rDxhsf1uEONy_uhkAXzl-Q&cb_client=search.gws-prod.gps&w=408&h=240&yaw=73.707405&pitch=0&thumbfov=100"
  },
  {
    "typology": "TERRASSE OUVERTE",
    "address": "20 RUE DU DRAGON",
    "district": "75006",
    "name": "SAS MAD",
    "siret": "74998028000012",
    "period": "Toute l'année",
    "longitude": 2.3308365673359943,
    "latitude": 48.85330848336801,
    "image": "https://streetviewpixels-pa.googleapis.com/v1/thumbnail?panoid=jG3wpZE1oHmvhCD8-eTvAA&cb_client=search.gws-prod.gps&w=408&h=240&yaw=268.61954&pitch=0&thumbfov=100"
  },
  {
    "typology": "TERRASSE OUVERTE",
    "address": "2 RUE D ORSEL",
    "district": "75018",
    "name": "PMDE MCDONALD'S SYSTEM OF FRANCE INC",
    "siret": "32316232100323",
    "period": "Toute l'année",
    "longitude": 2.3467608696002635,
    "latitude": 48.88393351306488,
    "image": "https://streetviewpixels-pa.googleapis.com/v1/thumbnail?panoid=kzsKVkKJHsfrVUMsfjjXVQ&cb_client=search.gws-prod.gps&w=408&h=240&yaw=350.21423&pitch=0&thumbfov=100"
  },
  {
    "typology": "TERRASSE FERMEE",
    "address": "23 RUE CLER",
    "district": "75007",
    "name": "SAS OUSTRY PERE-MERE-FILLES",
    "siret": "50941254000023",
    "period": "Toute l'année",
    "longitude": 2.305962698532035,
    "latitude": 48.857818764377164,
    "image": "https://streetviewpixels-pa.googleapis.com/v1/thumbnail?panoid=WYWZ0-NbT6HgY95l_51_Gw&cb_client=search.gws-prod.gps&w=408&h=240&yaw=15.746443&pitch=0&thumbfov=100"
  },
  {
    "typology": "ETALAGE",
    "address": "58 RUE DE L ARBRE SEC",
    "district": "75001",
    "name": "PRIMEURS DU LOUVRE",
    "siret": "523544922",
    "period": "Toute l'année",
    "longitude": 2.3425839980134855,
    "latitude": 48.86113824379026,
    "image": "https://streetviewpixels-pa.googleapis.com/v1/thumbnail?panoid=KIWtNZPzGwBmtGH1YbcvpA&cb_client=search.gws-prod.gps&w=408&h=240&yaw=107.55968&pitch=0&thumbfov=100"
  },
  {
    "typology": "ETALAGE",
    "address": "11 RUE PONCELET",
    "district": "75017",
    "name": "SAS POISSONNERIE DOMAIN ET FILS",
    "siret": "66201226900012",
    "period": "Toute l'année",
    "longitude": 2.2964248644902754,
    "latitude": 48.87890211654888,
    "image": "https://streetviewpixels-pa.googleapis.com/v1/thumbnail?panoid=HaTRXs0zYFU1khbi4MZ69Q&cb_client=search.gws-prod.gps&w=408&h=240&yaw=330.33&pitch=0&thumbfov=100"
  },
  {
    "typology": "ETALAGE",
    "address": "10 RUE DE LA PETITE PIERRE",
    "district": "75011",
    "name": "SARL S. K.",
    "siret": "81824160600016",
    "period": "Toute l'année",
    "longitude": 2.3899627414189166,
    "latitude": 48.854787445911235,
    "image": "https://streetviewpixels-pa.googleapis.com/v1/thumbnail?panoid=4L5alzIlMedGe_e3QxrGAg&cb_client=search.gws-prod.gps&w=408&h=240&yaw=129.321&pitch=0&thumbfov=100"
  },
  {
    "typology": "TERRASSE OUVERTE",
    "address": "5 RUE DE BRETAGNE",
    "district": "75003",
    "name": "SARL 2003",
    "siret": "80082829500025",
    "period": "Toute l'année",
    "longitude": 2.3638970833747686,
    "latitude": 48.862093330912465,
    "image": "https://streetviewpixels-pa.googleapis.com/v1/thumbnail?panoid=3ygN8qlKJcxYxTl8G0EW2A&cb_client=search.gws-prod.gps&w=408&h=240&yaw=243.34258&pitch=0&thumbfov=100"
  },
  {
    "typology": "ETALAGE",
    "address": "166 AVENUE LEDRU ROLLIN",
    "district": "75011",
    "name": "SAS MONOPRIX EXPLOITATION, PAR ABREVIATION MPX",
    "siret": "55208329702537",
    "period": "Toute l'année",
    "longitude": 2.379486124681279,
    "latitude": 48.856804367845676,
    "image": "https://streetviewpixels-pa.googleapis.com/v1/thumbnail?panoid=hk18yWPcw_JwZyXypmrnug&cb_client=search.gws-prod.gps&w=408&h=240&yaw=243.7614&pitch=0&thumbfov=100"
  },
  {
    "typology": "TERRASSE OUVERTE",
    "address": "9 BOULEVARD DES ITALIENS",
    "district": "75002",
    "name": "SAS EXKI FRANCE",
    "siret": "48998045800025",
    "period": "Toute l'année",
    "longitude": 2.3387173617776327,
    "latitude": 48.87160130520597,
    "image": "https://streetviewpixels-pa.googleapis.com/v1/thumbnail?panoid=jZEfflfm-bausow1QNXdvg&cb_client=search.gws-prod.gps&w=408&h=240&yaw=32.111645&pitch=0&thumbfov=100"
  },
  {
    "typology": "TERRASSE OUVERTE",
    "address": "2 RUE JEAN MACE",
    "district": "75011",
    "name": "SARL MARGAU",
    "siret": "33867623200014",
    "period": "Toute l'année",
    "longitude": 2.3848666251678567,
    "latitude": 48.85272374117376,
    "image": "https://streetviewpixels-pa.googleapis.com/v1/thumbnail?panoid=A4H4E_vEpxWVX8zW9o2sTA&cb_client=search.gws-prod.gps&w=408&h=240&yaw=36.958942&pitch=0&thumbfov=100"
  },
  {
    "typology": "TERRASSE OUVERTE",
    "address": "1 RUE DU BORREGO",
    "district": "75020",
    "name": "SARL LIFAN",
    "siret": "44285390900012",
    "period": "Toute l'année",
    "longitude": 2.3980534859504252,
    "latitude": 48.87247265793497,
    "image": "https://streetviewpixels-pa.googleapis.com/v1/thumbnail?panoid=HgODWeXi4YJAncTPtr98sw&cb_client=search.gws-prod.gps&w=408&h=240&yaw=286.95764&pitch=0&thumbfov=100"
  },
  {
    "typology": "ETALAGE",
    "address": "103 RUE MANIN",
    "district": "75019",
    "name": "SARL SSM SUPERMARCHE",
    "siret": "91052389300014",
    "period": "Toute l'année",
    "longitude": 2.387274820361255,
    "latitude": 48.88324920514315,
    "image": "https://streetviewpixels-pa.googleapis.com/v1/thumbnail?panoid=0FKfHFzHiPrrWdo7RJWCqA&cb_client=search.gws-prod.gps&w=408&h=240&yaw=14.734361&pitch=0&thumbfov=100"
  },
  {
    "typology": "Contre terrasse estivale sur stationnement",
    "address": "10 RUE DE WATTIGNIES",
    "district": "75012",
    "name": "COM SAIGON",
    "siret": "91157954800015",
    "period": "Du 01/04 au 31/10",
    "longitude": 2.392739019840579,
    "latitude": 48.83669429374055,
    "image": "https://streetviewpixels-pa.googleapis.com/v1/thumbnail?panoid=BORoJgq74OLQUVOLhMyqlw&cb_client=search.gws-prod.gps&w=408&h=240&yaw=180.43237&pitch=0&thumbfov=100"
  },
  {
    "typology": "TERRASSE FERMEE",
    "address": "85 AVENUE BOSQUET",
    "district": "75007",
    "name": "SARL LA TERRASSE DU 7 EME",
    "siret": "44348736800013",
    "period": "Toute l'année",
    "longitude": 2.305751371416534,
    "latitude": 48.854707152888,
    "image": "https://streetviewpixels-pa.googleapis.com/v1/thumbnail?panoid=5SzcbsO1NmfBqwA5trDD7Q&cb_client=search.gws-prod.gps&w=408&h=240&yaw=333.36493&pitch=0&thumbfov=100"
  },
  {
    "typology": "TERRASSE OUVERTE",
    "address": "179 RUE D ALESIA",
    "district": "75014",
    "name": "M OU MME XIE",
    "siret": "88822247800024",
    "period": "Toute l'année",
    "longitude": 2.3172125240580845,
    "latitude": 48.831034701221,
    "image": "https://streetviewpixels-pa.googleapis.com/v1/thumbnail?panoid=P0paTyGLTUE3q8L3oGSCAg&cb_client=search.gws-prod.gps&w=408&h=240&yaw=84.311554&pitch=0&thumbfov=100"
  },
  {
    "typology": "TERRASSE FERMEE",
    "address": "58 RUE FRANCOIS 1ER",
    "district": "75008",
    "name": "SA SOC L ALPE D HUEZ",
    "siret": "57220694400017",
    "period": "Toute l'année",
    "longitude": 2.3021405910236434,
    "latitude": 48.86974717043035,
    "image": "https://streetviewpixels-pa.googleapis.com/v1/thumbnail?panoid=RVjQZO72lNcFhU9wKYJ18Q&cb_client=search.gws-prod.gps&w=408&h=240&yaw=308.5386&pitch=0&thumbfov=100"
  },
  {
    "typology": "TERRASSE FERMEE",
    "address": "79 BOULEVARD VINCENT AURIOL",
    "district": "75013",
    "name": "SAS RESTAURIOL",
    "siret": "90183495200011",
    "period": "Toute l'année",
    "longitude": 2.367712690557744,
    "latitude": 48.83461307541679,
    "image": "https://streetviewpixels-pa.googleapis.com/v1/thumbnail?panoid=kGUEu_gAkw7xT9RDBIsPgQ&cb_client=search.gws-prod.gps&w=408&h=240&yaw=154.11404&pitch=0&thumbfov=100"
  },
  {
    "typology": "TERRASSE OUVERTE",
    "address": "115 RUE SAINT MARTIN",
    "district": "75004",
    "name": "SARL SARL IMAGE IN AIR",
    "siret": "41460327400021",
    "period": "Toute l'année",
    "longitude": 2.351058944425154,
    "latitude": 48.860562425096795,
    "image": "https://streetviewpixels-pa.googleapis.com/v1/thumbnail?panoid=CWsKvR_hFHvPIry-iX0T3g&cb_client=search.gws-prod.gps&w=408&h=240&yaw=335.89032&pitch=0&thumbfov=100"
  },
  {
    "typology": "Contre terrasse estivale sur stationnement",
    "address": "6 RUE D'ARTOIS",
    "district": "75008",
    "name": "JE N'AIME QUE TOI",
    "siret": "84124658000010",
    "period": "Du 01/04 au 31/10",
    "longitude": 2.308671695386447,
    "latitude": 48.87243017294578,
    "image": "https://streetviewpixels-pa.googleapis.com/v1/thumbnail?panoid=Vb_DGxIDi1JTZLuFZ30tzA&cb_client=search.gws-prod.gps&w=408&h=240&yaw=27.918549&pitch=0&thumbfov=100"
  },
  {
    "typology": "ETALAGE",
    "address": "34 RUE DES ARCHIVES",
    "district": "75004",
    "name": "SARL SARL MARCEL BOSSETTI",
    "siret": "61178040400061",
    "period": "Toute l'année",
    "longitude": 2.355632590408091,
    "latitude": 48.85875212496518,
    "image": "https://streetviewpixels-pa.googleapis.com/v1/thumbnail?panoid=idkau6thtD7M6LzJQWquqg&cb_client=search.gws-prod.gps&w=408&h=240&yaw=133.53325&pitch=0&thumbfov=100"
  },
  {
    "typology": "ETALAGE",
    "address": "32 RUE DE LANCRY",
    "district": "75010",
    "name": "SARL ILAIRA",
    "siret": "94920427500018",
    "period": "Toute l'année",
    "longitude": 2.361719115922803,
    "latitude": 48.8710694538254,
    "image": "https://streetviewpixels-pa.googleapis.com/v1/thumbnail?panoid=-C0Au7ZHAVf7lk_bAopqfw&cb_client=search.gws-prod.gps&w=408&h=240&yaw=127.476425&pitch=0&thumbfov=100"
  },
  {
    "typology": "TERRASSE FERMEE",
    "address": "112 AVENUE JEAN JAURES",
    "district": "75019",
    "name": "SARL ALLIANCE 3",
    "siret": "82977947900015",
    "period": "Toute l'année",
    "longitude": 2.3825423691742325,
    "latitude": 48.88587402502306,
    "image": "https://streetviewpixels-pa.googleapis.com/v1/thumbnail?panoid=1rMtGGM-ifY_Y8pTvfYoPA&cb_client=search.gws-prod.gps&w=408&h=240&yaw=162.63156&pitch=0&thumbfov=100"
  },
  {
    "typology": "TERRASSE FERMEE",
    "address": "27 BOULEVARD GARIBALDI",
    "district": "75015",
    "name": "SARL NORADY",
    "siret": "53919240100013",
    "period": "Toute l'année",
    "longitude": 2.304747015157623,
    "latitude": 48.84719120750352,
    "image": "https://streetviewpixels-pa.googleapis.com/v1/thumbnail?panoid=i-6xJsic11e80Ogp1TM9WA&cb_client=search.gws-prod.gps&w=408&h=240&yaw=26.939606&pitch=0&thumbfov=100"
  },
  {
    "typology": "ETALAGE",
    "address": "17 BOULEVARD DU TEMPLE",
    "district": "75003",
    "name": "SARL A & R TRADING CENTRALE D'ACHAT",
    "siret": "83756025900017",
    "period": "Toute l'année",
    "longitude": 2.365793994964636,
    "latitude": 48.86426207542431,
    "image": "https://streetviewpixels-pa.googleapis.com/v1/thumbnail?panoid=KfNCTP1L_zmMJCHTHabeLA&cb_client=search.gws-prod.gps&w=408&h=240&yaw=284.97415&pitch=0&thumbfov=100"
  },
  {
    "typology": "ETALAGE",
    "address": "59 RUE DUHESME",
    "district": "75018",
    "name": "SAS BOUCHERIE JOOTUN",
    "siret": "83045363500013",
    "period": "Toute l'année",
    "longitude": 2.3421338511731364,
    "latitude": 48.893037731940574,
    "image": "https://streetviewpixels-pa.googleapis.com/v1/thumbnail?panoid=3-TNfcDeqJhXKnXaG3dcHg&cb_client=search.gws-prod.gps&w=408&h=240&yaw=290.3461&pitch=0&thumbfov=100"
  },
  {
    "typology": "TERRASSE OUVERTE",
    "address": "14 RUE MARBEUF",
    "district": "75008",
    "name": "SAS LA TRUFFE MARBEUF",
    "siret": "32630030800011",
    "period": "Toute l'année",
    "longitude": 2.3029675882868337,
    "latitude": 48.86796601857132,
    "image": "https://streetviewpixels-pa.googleapis.com/v1/thumbnail?panoid=fl1aIYCf7BGcQqkavmSU0Q&cb_client=search.gws-prod.gps&w=408&h=240&yaw=354.4669&pitch=0&thumbfov=100"
  },
  {
    "typology": "TERRASSE FERMEE",
    "address": "175 RUE DE VAUGIRARD",
    "district": "75015",
    "name": "SARL TER LE NECKER",
    "siret": "43254934300015",
    "period": "Toute l'année",
    "longitude": 2.3137428507457893,
    "latitude": 48.84321429315986,
    "image": "https://streetviewpixels-pa.googleapis.com/v1/thumbnail?panoid=PRvBUFbOBigll7Mm6khNow&cb_client=search.gws-prod.gps&w=408&h=240&yaw=159.38092&pitch=0&thumbfov=100"
  },
  {
    "typology": "TERRASSE OUVERTE",
    "address": "63 AVENUE DE SAINT OUEN",
    "district": "75017",
    "name": "SAS CARREFOUR PROXIMITE FRANCE",
    "siret": "34513048813515",
    "period": "Toute l'année",
    "longitude": 2.3268618821168867,
    "latitude": 48.89176381493199,
    "image": "https://streetviewpixels-pa.googleapis.com/v1/thumbnail?panoid=WQs-sqRxexEVAopx0uuYKg&cb_client=search.gws-prod.gps&w=408&h=240&yaw=327.00168&pitch=0&thumbfov=100"
  },
  {
    "typology": "TERRASSE OUVERTE",
    "address": "40 AVENUE DE LA REPUBLIQUE",
    "district": "75011",
    "name": "SAS SINGTIME",
    "siret": "79350148700029",
    "period": "Toute l'année",
    "longitude": 2.373158650769641,
    "latitude": 48.865399733428205,
    "image": "https://streetviewpixels-pa.googleapis.com/v1/thumbnail?panoid=bZojz8vtdLOUU0BR3AOyZA&cb_client=search.gws-prod.gps&w=408&h=240&yaw=178.02354&pitch=0&thumbfov=100"
  },
  {
    "typology": "TERRASSE FERMEE",
    "address": "235 RUE SAINT CHARLES",
    "district": "75015",
    "name": "SARL SAITAMA BALARD",
    "siret": "50046623000017",
    "period": "Toute l'année",
    "longitude": 2.2780263506390726,
    "latitude": 48.8378572068466,
    "image": "https://streetviewpixels-pa.googleapis.com/v1/thumbnail?panoid=EpvPSZbvU2UIFgMDKKTQqg&cb_client=search.gws-prod.gps&w=408&h=240&yaw=155.2709&pitch=0&thumbfov=100"
  },
  {
    "typology": "TERRASSE FERMEE",
    "address": "63 BOULEVARD SAINT MICHEL",
    "district": "75005",
    "name": "SAS FRANCE BKR",
    "siret": "95002691404620",
    "period": "Toute l'année",
    "longitude": 2.341133665907639,
    "latitude": 48.84749131240767,
    "image": "https://streetviewpixels-pa.googleapis.com/v1/thumbnail?panoid=oqHYU1LdR8J8rcBa7QaXoA&cb_client=search.gws-prod.gps&w=408&h=240&yaw=208.90121&pitch=0&thumbfov=100"
  },
  {
    "typology": "ETALAGE",
    "address": "42 RUE TRAVERSIERE",
    "district": "75012",
    "name": "SAS LA ROSTICCERIA",
    "siret": "90463234600014",
    "period": "Toute l'année",
    "longitude": 2.374918869377642,
    "latitude": 48.849249251745626,
    "image": "https://streetviewpixels-pa.googleapis.com/v1/thumbnail?panoid=KvHNLgMryZk3snvpNBBz5w&cb_client=search.gws-prod.gps&w=408&h=240&yaw=129.41174&pitch=0&thumbfov=100"
  },
  {
    "typology": "TERRASSE OUVERTE",
    "address": "114 BOULEVARD DU MONTPARNASSE",
    "district": "75014",
    "name": "SAS MONTERRA",
    "siret": "32025238000011",
    "period": "Toute l'année",
    "longitude": 2.330213228412868,
    "latitude": 48.84162524099148,
    "image": "https://streetviewpixels-pa.googleapis.com/v1/thumbnail?panoid=GyrbdW31SR-yV2dLyQpxTQ&cb_client=search.gws-prod.gps&w=408&h=240&yaw=212.65071&pitch=0&thumbfov=100"
  },
  {
    "typology": "TERRASSE OUVERTE",
    "address": "11 RUE BOYER BARRET",
    "district": "75014",
    "name": "SAS L'AREQUIER",
    "siret": "82353593500014",
    "period": "Toute l'année",
    "longitude": 2.3180792420082126,
    "latitude": 48.83274023262179,
    "image": "https://streetviewpixels-pa.googleapis.com/v1/thumbnail?panoid=LB9R_Rn5Dvnq5skn4sasYw&cb_client=search.gws-prod.gps&w=408&h=240&yaw=29.549665&pitch=0&thumbfov=100"
  },
  {
    "typology": "TERRASSE OUVERTE",
    "address": "56 BOULEVARD SAINT MARCEL",
    "district": "75005",
    "name": "SAS CREAPROD",
    "siret": "91474855300023",
    "period": "Toute l'année",
    "longitude": 2.356117990485103,
    "latitude": 48.838340750442676,
    "image": "https://streetviewpixels-pa.googleapis.com/v1/thumbnail?panoid=FO41IVqlo3CpazHr4dkqvA&cb_client=search.gws-prod.gps&w=408&h=240&yaw=15.873258&pitch=0&thumbfov=100"
  },
  {
    "typology": "TERRASSE OUVERTE",
    "address": "144 RUE D AVRON",
    "district": "75020",
    "name": "SARL ELIF",
    "siret": "53378192800015",
    "period": "Toute l'année",
    "longitude": 2.40990505221696,
    "latitude": 48.85330022561574,
    "image": "https://streetviewpixels-pa.googleapis.com/v1/thumbnail?panoid=vBm5yEJzAZs30l0xQvZQKA&cb_client=search.gws-prod.gps&w=408&h=240&yaw=175.93658&pitch=0&thumbfov=100"
  },
  {
    "typology": "ETALAGE",
    "address": "216 RUE DE COURCELLES",
    "district": "75017",
    "name": "M OU MME FOUQUET HUBERT",
    "siret": "31887632300029",
    "period": "Toute l'année",
    "longitude": 2.295187433350561,
    "latitude": 48.88745359221347,
    "image": "https://streetviewpixels-pa.googleapis.com/v1/thumbnail?panoid=WZfjTnaRWna2kbp6p7r5Aw&cb_client=search.gws-prod.gps&w=408&h=240&yaw=208.98035&pitch=0&thumbfov=100"
  },
  {
    "typology": "ETALAGE",
    "address": "40 RUE DE MAUBEUGE",
    "district": "75009",
    "name": "SAS HEROES",
    "siret": "81800167900047",
    "period": "Toute l'année",
    "longitude": 2.3442037730649345,
    "latitude": 48.87787340407023,
    "image": "https://streetviewpixels-pa.googleapis.com/v1/thumbnail?panoid=OEbsOJg9d-jL8-M1YdGXtQ&cb_client=search.gws-prod.gps&w=408&h=240&yaw=121.22902&pitch=0&thumbfov=100"
  },
  {
    "typology": "ETALAGE",
    "address": "25 RUE DE LA JONQUIERE",
    "district": "75017",
    "name": "SAS LE CHAMP DES REVES",
    "siret": "82124455500016",
    "period": "Toute l'année",
    "longitude": 2.3249860755682197,
    "latitude": 48.893492924943715,
    "image": "https://streetviewpixels-pa.googleapis.com/v1/thumbnail?panoid=3ygN8qlKJcxYxTl8G0EW2A&cb_client=search.gws-prod.gps&w=408&h=240&yaw=243.34258&pitch=0&thumbfov=100"
  },
  {
    "typology": "TERRASSE OUVERTE",
    "address": "11 BOULEVARD BEAUMARCHAIS",
    "district": "75004",
    "name": "SARL AU PORT BEAUMARCHAIS",
    "siret": "80168355800010",
    "period": "Toute l'année",
    "longitude": 2.36858566850693,
    "latitude": 48.854579425603916,
    "image": "https://streetviewpixels-pa.googleapis.com/v1/thumbnail?panoid=FxAd4LfhB6mfpULy_CsniA&cb_client=search.gws-prod.gps&w=408&h=240&yaw=246.69072&pitch=0&thumbfov=100"
  },
  {
    "typology": "TERRASSE OUVERTE",
    "address": "112 BOULEVARD DE LA CHAPELLE",
    "district": "75018",
    "name": "SAS LE BONOIS",
    "siret": "95408117000019",
    "period": "Toute l'année",
    "longitude": 2.350900325508041,
    "latitude": 48.884026266857276,
    "image": "https://streetviewpixels-pa.googleapis.com/v1/thumbnail?panoid=0-bFk1ua_djU3w_9Ykbx_Q&cb_client=search.gws-prod.gps&w=408&h=240&yaw=24.10642&pitch=0&thumbfov=100"
  },
  {
    "typology": "TERRASSE OUVERTE",
    "address": "2 RUE BIOT",
    "district": "75017",
    "name": "M OU MME TROJETTE FARIDA NÉE TURKI",
    "siret": "39209540200013",
    "period": "Toute l'année",
    "longitude": 2.326626447058447,
    "latitude": 48.883919731828705,
    "image": "https://streetviewpixels-pa.googleapis.com/v1/thumbnail?panoid=yLrfuB8wHinItLUhilM3oA&cb_client=search.gws-prod.gps&w=408&h=240&yaw=54.04045&pitch=0&thumbfov=100"
  },
  {
    "typology": "ETALAGE",
    "address": "19 RUE DELAMBRE",
    "district": "75014",
    "name": "SARL STEFANO",
    "siret": "48320491300022",
    "period": "Toute l'année",
    "longitude": 2.327421576709208,
    "latitude": 48.84155682200084,
    "image": "https://streetviewpixels-pa.googleapis.com/v1/thumbnail?panoid=8uweBkko2TPCnHM9Wm8t1w&cb_client=search.gws-prod.gps&w=408&h=240&yaw=126.44957&pitch=0&thumbfov=100"
  }
]
